index,name,cate_1,cate_2,cate_3,dong,lon,lat,cate_mix,naver_keyword,naver_map_url,naver_store_type,naver_star_point,visitor_review,naver_blog_review_qty,office_review
0,디에이블,양식,정통양식/경양식,서양식 음식점업,중동,35.15725108,129.1767808,양식정통양식 경양식서양식 음식점업,중동%20디에이블,https://m.place.naver.com/restaurant/48003777,양식,4.44,1001,1089,0
1,뉴욕버거,패스트푸드,패스트푸드,그외 기타 음식점업,중동,35.16604015,129.1674015,패스트푸드패스트푸드그외 기타 음식점업,중동%20뉴욕버거,https://m.place.naver.com/restaurant/33880194,햄버거,4.46,1648,1703,0
2,버거인뉴욕,한식,한식/백반/한정식,한식 음식점업,중동,35.16094615,129.1647164,한식한식 백반 한정식한식 음식점업,중동%20버거인뉴욕,https://m.place.naver.com/restaurant/33880194,햄버거,4.46,1648,1703,0
3,혜성막창집,한식,곱창/양구이전문,한식 음식점업,중동,35.1639163,129.1632988,한식곱창 양구이전문한식 음식점업,중동%20혜성막창집,https://m.place.naver.com/restaurant/17004490,"곱창,막창,양",4.2,1532,1723,0
4,해성막창집,한식,곱창/양구이전문,한식 음식점업,중동,35.16155725,129.1658447,한식곱창 양구이전문한식 음식점업,중동%20해성막창집,https://m.place.naver.com/restaurant/17004490,"곱창,막창,양",4.2,1532,1723,0
5,해성막창,한식,곱창/양구이전문,한식 음식점업,중동,35.1639163,129.1632988,한식곱창 양구이전문한식 음식점업,중동%20해성막창,https://m.place.naver.com/restaurant/17004490,"곱창,막창,양",4.2,1532,1723,0
6,바다횟집,일식/수산물,횟집,한식 음식점업,중동,35.16121658,129.1618994,일식 수산물횟집한식 음식점업,중동%20바다횟집,https://m.place.naver.com/restaurant/18799565,생선회,4.37,1443,1858,0
7,해운식당,한식,한식/백반/한정식,한식 음식점업,중동,35.16228646,129.1668759,한식한식 백반 한정식한식 음식점업,중동%20해운식당,https://m.place.naver.com/restaurant/11833359,"치킨,닭강정",4.38,14,1,0
8,불오뎅,유흥주점,소주방/포장마차,기타 주점업,중동,35.16223211,129.1631541,유흥주점소주방 포장마차기타 주점업,중동%20불오뎅,https://m.place.naver.com/restaurant/37045974,떡볶이,4.12,14,1,0
9,안녕커피sea,커피점/카페,커피전문점/카페/다방,비알콜 음료점업,중동,35.16283631,129.1621858,커피점 카페커피전문점 카페 다방비알콜 음료점업,중동%20안녕커피sea,https://m.place.naver.com/restaurant/1529203209,"카페,디저트",4.83,18,1,0
10,오산추어탕,한식,추어탕전문,한식 음식점업,중동,35.1627216,129.1740826,한식추어탕전문한식 음식점업,중동%20오산추어탕,https://m.place.naver.com/restaurant/1091408924,추어탕,4.06,20,1,0
11,미소,양식,정통양식/경양식,서양식 음식점업,중동,35.15982783,129.1833815,양식정통양식 경양식서양식 음식점업,중동%20미소,https://m.place.naver.com/restaurant/13021443,미용실,3.97,21,1,0
12,멕시카나,닭/오리요리,후라이드/양념치킨,치킨 전문점,중동,35.16029666,129.1619521,닭 오리요리후라이드 양념치킨치킨 전문점,중동%20멕시카나,https://m.place.naver.com/restaurant/1322821420,"치킨,닭강정",4.3,36,1,0
13,팔공티,커피점/카페,커피전문점/카페/다방,비알콜 음료점업,중동,35.16604015,129.1674015,커피점 카페커피전문점 카페 다방비알콜 음료점업,중동%20팔공티,https://m.place.naver.com/restaurant/1201833172,차,4.41,398,1,0
14,몸차,커피점/카페,전통찻집/인삼찻집,비알콜 음료점업,중동,35.16264515,129.1623807,커피점 카페전통찻집 인삼찻집비알콜 음료점업,중동%20몸차,https://m.place.naver.com/restaurant/1099591379,"카페,디저트",4.45,46,1,0
15,동해식당,한식,한식/백반/한정식,한식 음식점업,중동,35.17137251,129.1724615,한식한식 백반 한정식한식 음식점업,중동%20동해식당,https://m.place.naver.com/restaurant/18759721,기사식당,4.22,58,1,0
16,스노잉클라우드,양식,정통양식/경양식,서양식 음식점업,중동,35.15728445,129.1816874,양식정통양식 경양식서양식 음식점업,중동%20스노잉클라우드,https://m.place.naver.com/restaurant/1010007916,"카페,디저트",4.74,2321,1091,0
17,엣지993,양식,정통양식/경양식,서양식 음식점업,중동,35.15642858,129.1751555,양식정통양식 경양식서양식 음식점업,중동%20엣지993,https://m.place.naver.com/restaurant/475538812,"카페,디저트",4.36,963,1093,0
18,엣지993까페,커피점/카페,커피전문점/카페/다방,비알콜 음료점업,중동,35.15642858,129.1751555,커피점 카페커피전문점 카페 다방비알콜 음료점업,중동%20엣지993까페,https://m.place.naver.com/restaurant/475538812,"카페,디저트",4.36,963,1093,0
19,일미리금계찜닭,닭/오리요리,찜닭전문점,한식 음식점업,중동,35.17137251,129.1724615,닭 오리요리찜닭전문점한식 음식점업,중동%20일미리금계찜닭,https://m.place.naver.com/restaurant/1266779978,찜닭,4.5,127,10,0
20,대박집,한식,한식/백반/한정식,한식 음식점업,중동,35.16458555,129.1630669,한식한식 백반 한정식한식 음식점업,중동%20대박집,https://m.place.naver.com/restaurant/18691970,"육류,고기요리",4.4,253,10,0
21,등대횟집,일식/수산물,횟집,한식 음식점업,중동,35.17005748,129.1742209,일식 수산물횟집한식 음식점업,중동%20등대횟집,https://m.place.naver.com/restaurant/1799089657,생선회,4.61,70,10,0
22,등대횟집,일식/수산물,횟집,한식 음식점업,중동,35.17137251,129.1724615,일식 수산물횟집한식 음식점업,중동%20등대횟집,https://m.place.naver.com/restaurant/1799089657,생선회,4.61,71,10,0
23,BHC해운대달맞이,닭/오리요리,후라이드/양념치킨,치킨 전문점,중동,35.16202277,129.1764324,닭 오리요리후라이드 양념치킨치킨 전문점,중동%20BHC해운대달맞이,https://m.place.naver.com/restaurant/36860175,"치킨,닭강정",4.26,72,10,0
24,형제전통돼지국밥,한식,한식/백반/한정식,한식 음식점업,중동,35.16204785,129.1635686,한식한식 백반 한정식한식 음식점업,중동%20형제전통돼지국밥,https://m.place.naver.com/restaurant/1565464352,한식,4.24,366,100,0
25,형제전통돼지국밥,한식,한식/백반/한정식,한식 음식점업,중동,35.16115433,129.1618107,한식한식 백반 한정식한식 음식점업,중동%20형제전통돼지국밥,https://m.place.naver.com/restaurant/1565464352,한식,4.24,366,100,0
26,형제돼지국밥,한식,해장국/감자탕,한식 음식점업,중동,35.16084184,129.1614989,한식해장국 감자탕한식 음식점업,중동%20형제돼지국밥,https://m.place.naver.com/restaurant/1565464352,한식,4.24,366,100,0
27,만석꾼민물장어,일식/수산물,민물장어전문,한식 음식점업,중동,35.16950022,129.1731262,일식 수산물민물장어전문한식 음식점업,중동%20만석꾼민물장어,https://m.place.naver.com/restaurant/36803401,"장어,먹장어요리",4.24,120,105,0
28,비엔씨제과,제과제빵떡케익,제과점,제과점업,중동,35.16163619,129.1763281,제과제빵떡케익제과점제과점업,중동%20비엔씨제과,https://m.place.naver.com/restaurant/33364823,베이커리,4.51,1630,106,0
29,남포삼계탕,닭/오리요리,삼계탕전문,한식 음식점업,중동,35.16284443,129.1650947,닭 오리요리삼계탕전문한식 음식점업,중동%20남포삼계탕,https://m.place.naver.com/restaurant/33097168,"백숙,삼계탕",4.35,253,106,8
30,문양곱창,한식,곱창/양구이전문,한식 음식점업,중동,35.16956281,129.1694497,한식곱창 양구이전문한식 음식점업,중동%20문양곱창,https://m.place.naver.com/restaurant/1065661662,"곱창,막창,양",4.76,27,106,0
31,예이제갈비,한식,갈비/삼겹살,한식 음식점업,중동,35.16021589,129.1666048,한식갈비 삼겹살한식 음식점업,중동%20예이제갈비,https://m.place.naver.com/restaurant/16548532,소고기구이,4.37,118,108,0
32,카페일다,커피점/카페,커피전문점/카페/다방,비알콜 음료점업,중동,35.16152637,129.189421,커피점 카페커피전문점 카페 다방비알콜 음료점업,중동%20카페일다,https://m.place.naver.com/restaurant/1891722890,"카페,디저트",4.58,231,109,0
33,토종순대국밥,별식/퓨전요리,순대전문점,한식 음식점업,중동,35.16105422,129.1712707,별식 퓨전요리순대전문점한식 음식점업,중동%20토종순대국밥,https://m.place.naver.com/restaurant/21153321,"순대,순댓국",4.29,193,11,0
34,아웃백스테이크하우스,양식,패밀리레스토랑,서양식 음식점업,중동,35.16046485,129.1622728,양식패밀리레스토랑서양식 음식점업,중동%20아웃백스테이크하우스,https://m.place.naver.com/restaurant/1527836391,패밀리레스토랑,4.6,196,11,0
35,미가원,한식,한식/백반/한정식,한식 음식점업,중동,35.17160322,129.172838,한식한식 백반 한정식한식 음식점업,중동%20미가원,https://m.place.naver.com/restaurant/37069867,일식당,4.25,22,11,0
36,청도양곱창,한식,곱창/양구이전문,한식 음식점업,중동,35.16739906,129.1713616,한식곱창 양구이전문한식 음식점업,중동%20청도양곱창,https://m.place.naver.com/restaurant/16577480,"곱창,막창,양",4.46,28,11,0
37,후라이드참잘하는집,유흥주점,호프/맥주,기타 주점업,중동,35.17137251,129.1724615,유흥주점호프 맥주기타 주점업,중동%20후라이드참잘하는집,https://m.place.naver.com/restaurant/1580289931,"치킨,닭강정",4.36,396,11,0
38,주문진막국수,한식,한식/백반/한정식,한식 음식점업,중동,35.16313359,129.1752849,한식한식 백반 한정식한식 음식점업,중동%20주문진막국수,https://m.place.naver.com/restaurant/21436692,막국수,4.17,40,11,0
39,투다리,유흥주점,호프/맥주,기타 주점업,중동,35.16023747,129.165299,유흥주점호프 맥주기타 주점업,중동%20투다리,https://m.place.naver.com/restaurant/1399990922,"오뎅,꼬치",4.03,86,11,0
40,해림횟집,일식/수산물,횟집,한식 음식점업,중동,35.1626215,129.1944641,일식 수산물횟집한식 음식점업,중동%20해림횟집,https://m.place.naver.com/restaurant/11579082,조개요리,4.43,483,110,0
41,지노스,패스트푸드,피자전문,"피자, 햄버거, 샌드위치 및 유사 음식점업",중동,35.16021589,129.1666048,"패스트푸드피자전문피자, 햄버거, 샌드위치 및 유사 음식점업",중동%20지노스,https://m.place.naver.com/restaurant/1258867879,피자,4.32,266,111,0
42,가야밀면,분식,국수/만두/칼국수,분식 및 김밥 전문점,중동,35.16940797,129.1733444,분식국수 만두 칼국수분식 및 김밥 전문점,중동%20가야밀면,https://m.place.naver.com/restaurant/13093502,냉면,4.36,274,115,0
43,하루참치,일식/수산물,참치전문점,일식 음식점업,중동,35.16309932,129.1629579,일식 수산물참치전문점일식 음식점업,중동%20하루참치,https://m.place.naver.com/restaurant/36893616,생선회,4.77,61,115,0
44,맥도날드,패스트푸드,패스트푸드,그외 기타 음식점업,중동,35.16184171,129.1709307,패스트푸드패스트푸드그외 기타 음식점업,중동%20맥도날드,https://m.place.naver.com/restaurant/11807421,햄버거,4.34,6504,117,0
45,해운대옛날팥빙수.단팥죽,제과제빵떡케익,제과점,제과점업,중동,35.16415432,129.168538,제과제빵떡케익제과점제과점업,중동%20해운대옛날팥빙수.단팥죽,https://m.place.naver.com/restaurant/1299021688,빙수,4.48,614,119,0
46,해운대옛날팥빙수,제과제빵떡케익,제과점,제과점업,중동,35.16415432,129.168538,제과제빵떡케익제과점제과점업,중동%20해운대옛날팥빙수,https://m.place.naver.com/restaurant/1299021688,빙수,4.48,614,119,0
47,해운대옛날팥빙수.단팥죽,한식,한식/백반/한정식,한식 음식점업,중동,35.16283894,129.1656654,한식한식 백반 한정식한식 음식점업,중동%20해운대옛날팥빙수.단팥죽,https://m.place.naver.com/restaurant/1299021688,빙수,4.48,614,119,0
48,복미아구찜,일식/수산물,아구전문,한식 음식점업,중동,35.1690508,129.1701998,일식 수산물아구전문한식 음식점업,중동%20복미아구찜,https://m.place.naver.com/restaurant/19709739,"아귀찜,해물찜",4.22,73,123,0
49,눈꽃을나누다,한식,한정식전문,한식 음식점업,중동,35.16426716,129.1633697,한식한정식전문한식 음식점업,중동%20눈꽃을나누다,https://m.place.naver.com/restaurant/1482376623,한식,4.41,250,128,0
50,미듬,한식,한식/백반/한정식,한식 음식점업,중동,35.16738612,129.1708346,한식한식 백반 한정식한식 음식점업,중동%20미듬,https://m.place.naver.com/restaurant/34661911,한식,4.55,80,128,0
51,삼겹파티,한식,갈비/삼겹살,한식 음식점업,중동,35.16451825,129.163505,한식갈비 삼겹살한식 음식점업,중동%20삼겹파티,https://m.place.naver.com/restaurant/1724389900,돼지고기구이,4.53,110,13,0
52,다다찻집,커피점/카페,전통찻집/인삼찻집,비알콜 음료점업,중동,35.15781533,129.1817828,커피점 카페전통찻집 인삼찻집비알콜 음료점업,중동%20다다찻집,https://m.place.naver.com/restaurant/1509797702,"카페,디저트",4.63,21,13,0
53,맘스터치해운대중동점,패스트푸드,패스트푸드,그외 기타 음식점업,중동,35.16324125,129.1622574,패스트푸드패스트푸드그외 기타 음식점업,중동%20맘스터치해운대중동점,https://m.place.naver.com/restaurant/779343298,"치킨,닭강정",4.4,242,13,0
54,착한횟집,일식/수산물,횟집,한식 음식점업,중동,35.1630223,129.194953,일식 수산물횟집한식 음식점업,중동%20착한횟집,https://m.place.naver.com/restaurant/1221490044,생선회,4.25,289,13,0
55,별난멸치국수,분식,국수/만두/칼국수,분식 및 김밥 전문점,중동,35.16541724,129.1684354,분식국수 만두 칼국수분식 및 김밥 전문점,중동%20별난멸치국수,https://m.place.naver.com/restaurant/1386351341,국수,4.42,332,13,0
56,해초과메기,한식,한식/백반/한정식,한식 음식점업,중동,35.16635541,129.1711601,한식한식 백반 한정식한식 음식점업,중동%20해초과메기,https://m.place.naver.com/restaurant/1513124437,"해물,생선요리",4.36,42,13,0
57,멤버스,유흥주점,룸살롱/단란주점,일반유흥 주점업,중동,35.16177503,129.1656941,유흥주점룸살롱 단란주점일반유흥 주점업,중동%20멤버스,https://m.place.naver.com/restaurant/13394230,"자동차정비,수리",4.31,423,13,0
58,일품강남,한식,한식/백반/한정식,한식 음식점업,중동,35.16094615,129.1647164,한식한식 백반 한정식한식 음식점업,중동%20일품강남,https://m.place.naver.com/restaurant/37790613,중식당,4.49,76,130,0
59,일번지자갈치산곰장어,일식/수산물,곰장어전문,한식 음식점업,중동,35.16098035,129.1620936,일식 수산물곰장어전문한식 음식점업,중동%20일번지자갈치산곰장어,https://m.place.naver.com/restaurant/13088268,"해물,생선요리",4.25,382,131,0
60,퍼주는집,한식,한식/백반/한정식,한식 음식점업,중동,35.16091571,129.1734749,한식한식 백반 한정식한식 음식점업,중동%20퍼주는집,https://m.place.naver.com/restaurant/13096744,낙지요리,4.44,148,132,0
61,마산이모집,한식,한식/백반/한정식,한식 음식점업,중동,35.16135103,129.1619781,한식한식 백반 한정식한식 음식점업,중동%20마산이모집,https://m.place.naver.com/restaurant/1996679908,생선구이,4.37,494,132,0
62,해운대별밤,유흥주점,기타일반유흥주점,일반유흥 주점업,중동,35.16095706,129.162642,유흥주점기타일반유흥주점일반유흥 주점업,중동%20해운대별밤,https://m.place.naver.com/restaurant/1449264547,요리주점,4.02,27,134,0
63,칠암산곰장어,일식/수산물,곰장어전문,한식 음식점업,중동,35.16154478,129.1624528,일식 수산물곰장어전문한식 음식점업,중동%20칠암산곰장어,https://m.place.naver.com/restaurant/19498550,"장어,먹장어요리",4.28,93,135,0
64,삿뽀로,일식/수산물,음식점-일식,일식 음식점업,중동,35.16713759,129.1713689,일식 수산물음식점-일식일식 음식점업,중동%20삿뽀로,https://m.place.naver.com/restaurant/1190472806,일식당,4.37,527,139,10
65,피자샵,패스트푸드,피자전문,"피자, 햄버거, 샌드위치 및 유사 음식점업",중동,35.16164179,129.1766794,"패스트푸드피자전문피자, 햄버거, 샌드위치 및 유사 음식점업",중동%20피자샵,https://m.place.naver.com/restaurant/1709232475,피자,4.45,100,14,0
66,교촌치킨,닭/오리요리,후라이드/양념치킨,치킨 전문점,중동,35.16269044,129.1670463,닭 오리요리후라이드 양념치킨치킨 전문점,중동%20교촌치킨,https://m.place.naver.com/restaurant/11802032,"치킨,닭강정",4.34,676,14,0
67,이노시시,일식/수산물,음식점-일식,일식 음식점업,중동,35.1660336,129.169015,일식 수산물음식점-일식일식 음식점업,중동%20이노시시,https://m.place.naver.com/restaurant/30997428,이자카야,4.71,86,14,0
68,달맞이서울깍두기,한식,한식/백반/한정식,한식 음식점업,중동,35.15918247,129.18301,한식한식 백반 한정식한식 음식점업,중동%20달맞이서울깍두기,https://m.place.naver.com/restaurant/965096442,한식,3.95,91,14,0
69,덮밥사랑,한식,한식/백반/한정식,한식 음식점업,중동,35.15920596,129.1610146,한식한식 백반 한정식한식 음식점업,중동%20덮밥사랑,https://m.place.naver.com/restaurant/1857563193,일본식라면,4.45,233,145,0
70,스왈로,제과제빵떡케익,제과점,제과점업,중동,35.16497778,129.1635225,제과제빵떡케익제과점제과점업,중동%20스왈로,https://m.place.naver.com/restaurant/20601531,카페,4.41,38,145,0
71,무봤나촌닭,닭/오리요리,후라이드/양념치킨,치킨 전문점,중동,35.16467136,129.1635182,닭 오리요리후라이드 양념치킨치킨 전문점,중동%20무봤나촌닭,https://m.place.naver.com/restaurant/1618229532,"치킨,닭강정",4.53,114,15,0
72,베이크하우스,제과제빵떡케익,제과점,제과점업,중동,35.15758799,129.1819881,제과제빵떡케익제과점제과점업,중동%20베이크하우스,https://m.place.naver.com/restaurant/1405907736,베이커리,4.73,151,15,0
73,해운대인생꼬치,유흥주점,꼬치구이전문점,기타 주점업,중동,35.1616456,129.1622787,유흥주점꼬치구이전문점기타 주점업,중동%20해운대인생꼬치,https://m.place.naver.com/restaurant/1844815309,닭요리,4.3,231,15,0
74,등대장어구이,일식/수산물,민물장어전문,한식 음식점업,중동,35.1614364,129.1939858,일식 수산물민물장어전문한식 음식점업,중동%20등대장어구이,https://m.place.naver.com/restaurant/19567004,"해물,생선요리",4.57,37,15,0
75,명랑시대쌀핫도그중동점,패스트푸드,핫도그,"피자, 햄버거, 샌드위치 및 유사 음식점업",중동,35.16311707,129.1620471,"패스트푸드핫도그피자, 햄버거, 샌드위치 및 유사 음식점업",중동%20명랑시대쌀핫도그중동점,https://m.place.naver.com/restaurant/1177668214,핫도그,4.47,643,15,0
76,강촌,한식,한식/백반/한정식,한식 음식점업,중동,35.1694817,129.1694485,한식한식 백반 한정식한식 음식점업,중동%20강촌,https://m.place.naver.com/restaurant/1495147725,닭갈비,4.54,91,15,0
77,갈맷길돼지국밥,한식,해장국/감자탕,한식 음식점업,중동,35.16180215,129.1722253,한식해장국 감자탕한식 음식점업,중동%20갈맷길돼지국밥,https://m.place.naver.com/restaurant/36620747,국밥,4.37,517,150,0
78,해운대소문난삼계탕,한식,한식/백반/한정식,한식 음식점업,중동,35.16262887,129.1650148,한식한식 백반 한정식한식 음식점업,중동%20해운대소문난삼계탕,https://m.place.naver.com/restaurant/16577597,"백숙,삼계탕",4.42,314,153,14
79,해운대삼계탕,닭/오리요리,삼계탕전문,한식 음식점업,중동,35.16185689,129.1656184,닭 오리요리삼계탕전문한식 음식점업,중동%20해운대삼계탕,https://m.place.naver.com/restaurant/16577597,"백숙,삼계탕",4.42,314,153,0
80,미스공떡볶이,분식,떡볶이전문,분식 및 김밥 전문점,중동,35.16068757,129.1616065,분식떡볶이전문분식 및 김밥 전문점,중동%20미스공떡볶이,https://m.place.naver.com/restaurant/692709539,떡볶이,4,824,155,0
81,가마솥,한식,한식/백반/한정식,한식 음식점업,중동,35.16888379,129.1716244,한식한식 백반 한정식한식 음식점업,중동%20가마솥,https://m.place.naver.com/restaurant/17009719,돼지고기구이,4.31,249,158,0
82,한솥도시락중동해운대구청점,패스트푸드,도시락전문점,한식 음식점업,중동,35.16290231,129.1628234,패스트푸드도시락전문점한식 음식점업,중동%20한솥도시락중동해운대구청점,https://m.place.naver.com/restaurant/41266273,"도시락,컵밥",4.27,267,16,0
83,25시회센터,일식/수산물,횟집,한식 음식점업,중동,35.15778732,129.1726068,일식 수산물횟집한식 음식점업,중동%2025시회센터,https://m.place.naver.com/restaurant/1665097076,생선회,4.4,39,16,0
84,설빙,커피점/카페,커피전문점/카페/다방,비알콜 음료점업,중동,35.16264912,129.1907436,커피점 카페커피전문점 카페 다방비알콜 음료점업,중동%20설빙,https://m.place.naver.com/restaurant/1978653765,빙수,4.23,682,16,0
85,소문난칼국수,분식,국수/만두/칼국수,분식 및 김밥 전문점,중동,35.16464503,129.169061,분식국수 만두 칼국수분식 및 김밥 전문점,중동%20소문난칼국수,https://m.place.naver.com/restaurant/19916371,"칼국수,만두",4.52,72,16,0
86,소문난칼국수집,분식,국수/만두/칼국수,분식 및 김밥 전문점,중동,35.16464503,129.169061,분식국수 만두 칼국수분식 및 김밥 전문점,중동%20소문난칼국수집,https://m.place.naver.com/restaurant/19916371,"칼국수,만두",4.52,72,16,0
87,청풍설렁탕,한식,설렁탕집,한식 음식점업,중동,35.16181657,129.1651239,한식설렁탕집한식 음식점업,중동%20청풍설렁탕,https://m.place.naver.com/restaurant/1297837513,"곰탕,설렁탕",4.32,795,160,2
88,청풍설렁탕,한식,한식/백반/한정식,한식 음식점업,중동,35.16254483,129.1662539,한식한식 백반 한정식한식 음식점업,중동%20청풍설렁탕,https://m.place.naver.com/restaurant/1297837513,"곰탕,설렁탕",4.32,795,160,0
89,가빈횟집,일식/수산물,횟집,한식 음식점업,중동,35.1585886,129.1717731,일식 수산물횟집한식 음식점업,중동%20가빈횟집,https://m.place.naver.com/restaurant/17008219,생선회,4.68,206,161,0
90,언제나마카롱&디저트,패스트푸드,패스트푸드,그외 기타 음식점업,중동,35.16244962,129.1639695,패스트푸드패스트푸드그외 기타 음식점업,중동%20언제나마카롱&디저트,https://m.place.naver.com/restaurant/1054956675,"카페,디저트",4.53,99,161,0
91,할리스커피부산달맞이점,커피점/카페,커피전문점/카페/다방,비알콜 음료점업,중동,35.15918247,129.18301,커피점 카페커피전문점 카페 다방비알콜 음료점업,중동%20할리스커피부산달맞이점,https://m.place.naver.com/restaurant/33811226,카페,4.48,1002,162,0
92,파라다이스부티크,제과제빵떡케익,제과점,제과점업,중동,35.16023747,129.165299,제과제빵떡케익제과점제과점업,중동%20파라다이스부티크,https://m.place.naver.com/restaurant/37402232,베이커리,4.8,317,166,0
93,백년돼지국밥,한식,해장국/감자탕,한식 음식점업,중동,35.16490363,129.168417,한식해장국 감자탕한식 음식점업,중동%20백년돼지국밥,https://m.place.naver.com/restaurant/70010022,국밥,4.24,229,169,0
94,백년돼지국밥해운대점,한식,한식/백반/한정식,한식 음식점업,중동,35.16506459,129.1685511,한식한식 백반 한정식한식 음식점업,중동%20백년돼지국밥해운대점,https://m.place.naver.com/restaurant/70010022,국밥,4.24,229,169,0
95,태평루,한식,한식/백반/한정식,한식 음식점업,중동,35.16223195,129.1641091,한식한식 백반 한정식한식 음식점업,중동%20태평루,https://m.place.naver.com/restaurant/13480403,중식당,4.39,153,17,0
96,동백,양식,돈가스전문점,서양식 음식점업,중동,35.16341164,129.1623477,양식돈가스전문점서양식 음식점업,중동%20동백,https://m.place.naver.com/restaurant/1454910080,"문구,팬시용품",4.53,20,17,0
97,메이포,분식,국수/만두/칼국수,분식 및 김밥 전문점,중동,35.16518367,129.1692882,분식국수 만두 칼국수분식 및 김밥 전문점,중동%20메이포,https://m.place.naver.com/restaurant/1347366463,베트남음식,4.49,261,173,0
98,평안도족발,한식,족발/보쌈전문,한식 음식점업,중동,35.16198447,129.1664105,한식족발 보쌈전문한식 음식점업,중동%20평안도족발,https://m.place.naver.com/restaurant/13572566,"족발,보쌈",4.35,229,176,0
99,더꼬치다,유흥주점,꼬치구이전문점,기타 주점업,중동,35.16311707,129.1620471,유흥주점꼬치구이전문점기타 주점업,중동%20더꼬치다,https://m.place.naver.com/restaurant/1203883939,"오뎅,꼬치",4.6,119,18,0
100,닭굽는마을,닭/오리요리,후라이드/양념치킨,치킨 전문점,중동,35.16331082,129.1737398,닭 오리요리후라이드 양념치킨치킨 전문점,중동%20닭굽는마을,https://m.place.naver.com/restaurant/33641933,"치킨,닭강정",4.9,12,18,0
101,용밀면,분식,라면김밥분식,분식 및 김밥 전문점,중동,35.16541724,129.1684354,분식라면김밥분식분식 및 김밥 전문점,중동%20용밀면,https://m.place.naver.com/restaurant/37704362,한식,4.23,139,18,0
102,빈끌로,유흥주점,빠/카페/스탠드빠,일반유흥 주점업,중동,35.16378543,129.1628469,유흥주점빠 카페 스탠드빠일반유흥 주점업,중동%20빈끌로,https://m.place.naver.com/restaurant/1070789421,바(BAR),4.93,81,180,0
103,김철수스시선수,일식/수산물,횟집,한식 음식점업,중동,35.16627504,129.1710821,일식 수산물횟집한식 음식점업,중동%20김철수스시선수,https://m.place.naver.com/restaurant/35460723,일식당,4.57,224,181,0
104,크리스탈가든,한식,한식/백반/한정식,한식 음식점업,중동,35.16023747,129.165299,한식한식 백반 한정식한식 음식점업,중동%20크리스탈가든,https://m.place.naver.com/restaurant/33244178,바(BAR),4.57,46,184,0
105,동백극장,일식/수산물,수산물전문음식점-종합,한식 음식점업,중동,35.16150198,129.1650316,일식 수산물수산물전문음식점-종합한식 음식점업,중동%20동백극장,https://m.place.naver.com/restaurant/20059795,영화관,4.34,819,187,0
106,향유재엄마밥상,한식,한식/백반/한정식,한식 음식점업,중동,35.16286539,129.1889137,한식한식 백반 한정식한식 음식점업,중동%20향유재엄마밥상,https://m.place.naver.com/restaurant/13573568,한식,4.19,567,188,0
107,하이,유흥주점,룸살롱/단란주점,일반유흥 주점업,중동,35.16208353,129.164546,유흥주점룸살롱 단란주점일반유흥 주점업,중동%20하이,https://m.place.naver.com/restaurant/37467955,"치킨,닭강정",4.32,612,19,0
108,하이,중식,중국음식/중국집,중식 음식점업,중동,35.16775806,129.1724535,중식중국음식 중국집중식 음식점업,중동%20하이,https://m.place.naver.com/restaurant/37467955,"치킨,닭강정",4.32,612,19,0
109,경복궁,한식,한식/백반/한정식,한식 음식점업,중동,35.16713759,129.1713689,한식한식 백반 한정식한식 음식점업,중동%20경복궁,https://m.place.naver.com/restaurant/20112279,"육류,고기요리",4.11,715,194,18
110,이실이네왕족발,한식,족발/보쌈전문,한식 음식점업,중동,35.17137251,129.1724615,한식족발 보쌈전문한식 음식점업,중동%20이실이네왕족발,https://m.place.naver.com/restaurant/1205435861,"족발,보쌈",4.43,16,2,0
111,아웃닭,닭/오리요리,후라이드/양념치킨,치킨 전문점,중동,35.1602146,129.1620498,닭 오리요리후라이드 양념치킨치킨 전문점,중동%20아웃닭,https://m.place.naver.com/restaurant/36939095,"치킨,닭강정",4.29,164,2,0
112,아이스크림할인점,패스트푸드,아이스크림판매,제과점업,중동,35.16253912,129.1798754,패스트푸드아이스크림판매제과점업,중동%20아이스크림할인점,https://m.place.naver.com/restaurant/1607359375,가공식품,4.51,201,2,0
113,더도시락,패스트푸드,도시락전문점,한식 음식점업,중동,35.16436946,129.1686619,패스트푸드도시락전문점한식 음식점업,중동%20더도시락,https://m.place.naver.com/restaurant/31873639,편의점,4.5,346,2,0
114,동백집,일식/수산물,횟집,한식 음식점업,중동,35.16075245,129.192044,일식 수산물횟집한식 음식점업,중동%20동백집,https://m.place.naver.com/restaurant/1689662040,"도시락,컵밥",4.18,448,2,0
115,젠틀맨,양식,정통양식/경양식,서양식 음식점업,중동,35.1642754,129.1681336,양식정통양식 경양식서양식 음식점업,중동%20젠틀맨,https://m.place.naver.com/restaurant/37433347,안경원,4.23,74,2,0
116,텐퍼센트커피,커피점/카페,커피전문점/카페/다방,비알콜 음료점업,중동,35.16253912,129.1798754,커피점 카페커피전문점 카페 다방비알콜 음료점업,중동%20텐퍼센트커피,https://m.place.naver.com/restaurant/1834707365,카페,4.41,74,2,0
117,캐슬식당,한식,한식/백반/한정식,한식 음식점업,중동,35.16488492,129.1638066,한식한식 백반 한정식한식 음식점업,중동%20캐슬식당,https://m.place.naver.com/restaurant/35551591,"맥주,호프",4.28,85,2,0
118,더리터해운대점,커피점/카페,커피전문점/카페/다방,비알콜 음료점업,중동,35.16283631,129.1621858,커피점 카페커피전문점 카페 다방비알콜 음료점업,중동%20더리터해운대점,https://m.place.naver.com/restaurant/94044080,테이크아웃커피,4.3,89,2,0
119,향,한식,한식/백반/한정식,한식 음식점업,중동,35.16459041,129.1681821,한식한식 백반 한정식한식 음식점업,중동%20향,https://m.place.naver.com/restaurant/36220192,"족발,보쌈",4.23,95,2,0
120,용우동,분식,우동전문점,분식 및 김밥 전문점,중동,35.16095556,129.1665495,분식우동전문점분식 및 김밥 전문점,중동%20용우동,https://m.place.naver.com/restaurant/11761651,"우동,소바",4.14,99,2,0
121,청사포도희네횟집,일식/수산물,횟집,한식 음식점업,중동,35.16251508,129.194287,일식 수산물횟집한식 음식점업,중동%20청사포도희네횟집,https://m.place.naver.com/restaurant/1200182324,생선회,4.22,664,2078,0
122,금수복국,한식,한식/백반/한정식,한식 음식점업,중동,35.16200537,129.1642375,한식한식 백반 한정식한식 음식점업,중동%20금수복국,https://m.place.naver.com/restaurant/11672174,복어요리,4.35,3383,2113,35
123,금수식당,일식/수산물,복전문,한식 음식점업,중동,35.16243534,129.1645181,일식 수산물복전문한식 음식점업,중동%20금수식당,https://m.place.naver.com/restaurant/11672174,복어요리,4.35,3383,2113,0
124,부산복국,한식,한식/백반/한정식,한식 음식점업,중동,35.16155725,129.1658447,한식한식 백반 한정식한식 음식점업,중동%20부산복국,https://m.place.naver.com/restaurant/11672174,복어요리,4.35,3383,2113,0
125,해운대소문난암소갈비집,한식,갈비/삼겹살,한식 음식점업,중동,35.1632475,129.1662969,한식갈비 삼겹살한식 음식점업,중동%20해운대소문난암소갈비집,https://m.place.naver.com/restaurant/11672261,"육류,고기요리",4.22,3794,2943,0
126,해운대소문난암소갈비,한식,갈비/삼겹살,한식 음식점업,중동,35.1632475,129.1662969,한식갈비 삼겹살한식 음식점업,중동%20해운대소문난암소갈비,https://m.place.naver.com/restaurant/11672261,"육류,고기요리",4.22,3794,2943,0
127,조방낙지,일식/수산물,수산물전문음식점-종합,한식 음식점업,중동,35.17106938,129.1721168,일식 수산물수산물전문음식점-종합한식 음식점업,중동%20조방낙지,https://m.place.naver.com/restaurant/21038113,낙지요리,4.31,131,20,0
128,부다파이,패스트푸드,패스트푸드,그외 기타 음식점업,중동,35.16755715,129.1699259,패스트푸드패스트푸드그외 기타 음식점업,중동%20부다파이,https://m.place.naver.com/restaurant/1476234070,베이커리,4.94,48,20,0
129,보리문디,한식,한식/백반/한정식,한식 음식점업,중동,35.1637048,129.1637349,한식한식 백반 한정식한식 음식점업,중동%20보리문디,https://m.place.naver.com/restaurant/35973558,한식,4.55,197,200,0
130,호천당,한식,한식/백반/한정식,한식 음식점업,중동,35.16298542,129.162616,한식한식 백반 한정식한식 음식점업,중동%20호천당,https://m.place.naver.com/restaurant/1949237538,돈가스,4.28,215,206,0
131,해운대하얀집오징어,일식/수산물,낙지/오징어,한식 음식점업,중동,35.16114753,129.1700097,일식 수산물낙지 오징어한식 음식점업,중동%20해운대하얀집오징어,https://m.place.naver.com/restaurant/31936720,오징어요리,4.35,286,208,0
132,해운대하얀오징어물회,일식/수산물,낙지/오징어,한식 음식점업,중동,35.16114753,129.1700097,일식 수산물낙지 오징어한식 음식점업,중동%20해운대하얀오징어물회,https://m.place.naver.com/restaurant/31936720,오징어요리,4.35,286,208,0
133,해운대하얀오징어집,일식/수산물,낙지/오징어,한식 음식점업,중동,35.16114753,129.1700097,일식 수산물낙지 오징어한식 음식점업,중동%20해운대하얀오징어집,https://m.place.naver.com/restaurant/31936720,오징어요리,4.35,286,208,0
134,샌디블루,양식,정통양식/경양식,서양식 음식점업,중동,35.16068521,129.1915491,양식정통양식 경양식서양식 음식점업,중동%20샌디블루,https://m.place.naver.com/restaurant/1992178998,"카페,디저트",4.5,358,208,0
135,신화루,중식,중국음식/중국집,중식 음식점업,중동,35.16367222,129.1633722,중식중국음식 중국집중식 음식점업,중동%20신화루,https://m.place.naver.com/restaurant/16578277,중식당,4.44,294,21,0
136,구포국수,분식,국수/만두/칼국수,분식 및 김밥 전문점,중동,35.1625554,129.1632795,분식국수 만두 칼국수분식 및 김밥 전문점,중동%20구포국수,https://m.place.naver.com/restaurant/36604718,국수,4.32,38,21,0
137,구포국수,분식,라면김밥분식,분식 및 김밥 전문점,중동,35.16191413,129.16529,분식라면김밥분식분식 및 김밥 전문점,중동%20구포국수,https://m.place.naver.com/restaurant/36604718,국수,4.32,38,21,0
138,쿠라,양식,정통양식/경양식,서양식 음식점업,중동,35.16541724,129.1684354,양식정통양식 경양식서양식 음식점업,중동%20쿠라,https://m.place.naver.com/restaurant/16550884,일식당,4.41,40,21,0
139,갓쓴아구찜,일식/수산물,아구전문,한식 음식점업,중동,35.16868298,129.1700189,일식 수산물아구전문한식 음식점업,중동%20갓쓴아구찜,https://m.place.naver.com/restaurant/37829912,"아귀찜,해물찜",4.35,52,22,0
140,1943,한식,한식/백반/한정식,한식 음식점업,중동,35.16152241,129.1610256,한식한식 백반 한정식한식 음식점업,중동%201943,https://m.place.naver.com/restaurant/1930580615,요리주점,4.22,83,22,0
141,버거킹,패스트푸드,패스트푸드,그외 기타 음식점업,중동,35.16177581,129.1609195,패스트푸드패스트푸드그외 기타 음식점업,중동%20버거킹,https://m.place.naver.com/restaurant/1474016740,햄버거,4.39,2326,23,0
142,고젠,한식,한식/백반/한정식,한식 음식점업,중동,35.16088487,129.1840554,한식한식 백반 한정식한식 음식점업,중동%20고젠,https://m.place.naver.com/restaurant/19828282,일식당,4.43,53,23,0
143,신드롬,유흥주점,룸살롱/단란주점,일반유흥 주점업,중동,35.16193095,129.1672879,유흥주점룸살롱 단란주점일반유흥 주점업,중동%20신드롬,https://m.place.naver.com/restaurant/1929789014,"카페,디저트",4.83,71,23,0
144,오페라하우스,양식,정통양식/경양식,서양식 음식점업,중동,35.15899428,129.1754888,양식정통양식 경양식서양식 음식점업,중동%20오페라하우스,https://m.place.naver.com/restaurant/13439434,양식,4.51,447,233,0
145,오페라레스토랑,양식,정통양식/경양식,서양식 음식점업,중동,35.15899428,129.1754888,양식정통양식 경양식서양식 음식점업,중동%20오페라레스토랑,https://m.place.naver.com/restaurant/13439434,양식,4.51,447,233,0
146,할리스,커피점/카페,커피전문점/카페/다방,비알콜 음료점업,중동,35.15918247,129.18301,커피점 카페커피전문점 카페 다방비알콜 음료점업,중동%20할리스,https://m.place.naver.com/restaurant/21348949,카페,4.27,1022,24,0
147,할리스커피,커피점/카페,커피전문점/카페/다방,비알콜 음료점업,중동,35.15990358,129.1615843,커피점 카페커피전문점 카페 다방비알콜 음료점업,중동%20할리스커피,https://m.place.naver.com/restaurant/21348949,카페,4.27,1022,24,0
148,콩밭골순두부,한식,순두부전문,한식 음식점업,중동,35.16890913,129.1718004,한식순두부전문한식 음식점업,중동%20콩밭골순두부,https://m.place.naver.com/restaurant/38780068,두부요리,4.35,495,244,0
149,청수다슬기촌,한식,한식/백반/한정식,한식 음식점업,중동,35.17069261,129.173791,한식한식 백반 한정식한식 음식점업,중동%20청수다슬기촌,https://m.place.naver.com/restaurant/1777742841,한식,4.52,109,25,4
150,중식궁,중식,중국음식/중국집,중식 음식점업,중동,35.16410114,129.1637625,중식중국음식 중국집중식 음식점업,중동%20중식궁,https://m.place.naver.com/restaurant/21662852,중식당,4.29,256,25,0
151,해운대요리궁,중식,중국음식/중국집,중식 음식점업,중동,35.16618936,129.1687538,중식중국음식 중국집중식 음식점업,중동%20해운대요리궁,https://m.place.naver.com/restaurant/21662852,중식당,4.29,256,25,0
152,기장장어집,일식/수산물,민물장어전문,한식 음식점업,중동,35.16207115,129.1630201,일식 수산물민물장어전문한식 음식점업,중동%20기장장어집,https://m.place.naver.com/restaurant/743799862,"장어,먹장어요리",4.35,64,25,0
153,서호밀면,분식,라면김밥분식,분식 및 김밥 전문점,중동,35.16107947,129.1816654,분식라면김밥분식분식 및 김밥 전문점,중동%20서호밀면,https://m.place.naver.com/restaurant/1244975329,국수,4.45,65,25,0
154,두꺼비오뎅부산맛집해운대,분식,라면김밥분식,분식 및 김밥 전문점,중동,35.1637936,129.1629349,분식라면김밥분식분식 및 김밥 전문점,중동%20두꺼비오뎅부산맛집해운대,https://m.place.naver.com/restaurant/1046087114,"오뎅,꼬치",4.47,87,25,0
155,두꺼비오뎅부산맛집,유흥주점,소주방/포장마차,기타 주점업,중동,35.1637936,129.1629349,유흥주점소주방 포장마차기타 주점업,중동%20두꺼비오뎅부산맛집,https://m.place.naver.com/restaurant/1046087114,"오뎅,꼬치",4.47,87,25,0
156,바다마루전복죽,별식/퓨전요리,죽전문점,한식 음식점업,중동,35.15969863,129.1716354,별식 퓨전요리죽전문점한식 음식점업,중동%20바다마루전복죽,https://m.place.naver.com/restaurant/12071322,죽,4.71,539,255,0
157,오리만찬,닭/오리요리,오리고기전문,한식 음식점업,중동,35.15963749,129.1825665,닭 오리요리오리고기전문한식 음식점업,중동%20오리만찬,https://m.place.naver.com/restaurant/1702294962,오리요리,4.43,109,26,0
158,김밥킹,분식,라면김밥분식,분식 및 김밥 전문점,중동,35.16253912,129.1798754,분식라면김밥분식분식 및 김밥 전문점,중동%20김밥킹,https://m.place.naver.com/restaurant/37364574,김밥,4.55,128,26,0
159,믈,한식,한정식전문,한식 음식점업,중동,35.16098812,129.1669122,한식한정식전문한식 음식점업,중동%20믈,https://m.place.naver.com/restaurant/1932872104,와인,4.18,18,26,0
160,미조떼,양식,기타전문서양음식점,서양식 음식점업,중동,35.16130342,129.1836553,양식기타전문서양음식점서양식 음식점업,중동%20미조떼,https://m.place.naver.com/restaurant/1702857864,양식,4.41,155,261,0
161,겟올라잇,별식/퓨전요리,퓨전음식전문,그외 기타 음식점업,중동,35.16106659,129.1643778,별식 퓨전요리퓨전음식전문그외 기타 음식점업,중동%20겟올라잇,https://m.place.naver.com/restaurant/1651842820,바(BAR),4.55,212,265,0
162,하드록카페부산,커피점/카페,커피전문점/카페/다방,비알콜 음료점업,중동,35.16150198,129.1650316,커피점 카페커피전문점 카페 다방비알콜 음료점업,중동%20하드록카페부산,https://m.place.naver.com/restaurant/37230679,양식,4.31,54,275,0
163,신흥관,중식,중국음식/중국집,중식 음식점업,중동,35.16281007,129.1630416,중식중국음식 중국집중식 음식점업,중동%20신흥관,https://m.place.naver.com/restaurant/13572521,중식당,4.26,309,276,0
164,해운대횟집,일식/수산물,횟집,한식 음식점업,중동,35.16103769,129.1617541,일식 수산물횟집한식 음식점업,중동%20해운대횟집,https://m.place.naver.com/restaurant/32377701,일식당,4.1,151,277,0
165,해운대횟집,일식/수산물,횟집,한식 음식점업,중동,35.15852191,129.1712124,일식 수산물횟집한식 음식점업,중동%20해운대횟집,https://m.place.naver.com/restaurant/32377701,일식당,4.1,151,277,0
166,하오,중식,중국음식/중국집,중식 음식점업,중동,35.16378543,129.1628469,중식중국음식 중국집중식 음식점업,중동%20하오,https://m.place.naver.com/restaurant/299343048,중식당,4.36,399,28,0
167,매초,한식,한식/백반/한정식,한식 음식점업,중동,35.16425572,129.163622,한식한식 백반 한정식한식 음식점업,중동%20매초,https://m.place.naver.com/restaurant/38563081,요리주점,4.86,52,29,0
168,사까에&가야,양식,정통양식/경양식,서양식 음식점업,중동,35.16023747,129.165299,양식정통양식 경양식서양식 음식점업,중동%20사까에&가야,https://m.place.naver.com/restaurant/13572480,일식당,4.38,49,297,0
169,사까에,일식/수산물,음식점-일식,일식 음식점업,중동,35.16023747,129.165299,일식 수산물음식점-일식일식 음식점업,중동%20사까에,https://m.place.naver.com/restaurant/13572480,일식당,4.38,49,297,0
170,사까에&르소메,양식,정통양식/경양식,서양식 음식점업,중동,35.16023747,129.165299,양식정통양식 경양식서양식 음식점업,중동%20사까에&르소메,https://m.place.naver.com/restaurant/13572480,일식당,4.38,49,297,0
171,깔끔이대구탕,일식/수산물,매운탕전문,한식 음식점업,중동,35.16270745,129.1652793,일식 수산물매운탕전문한식 음식점업,중동%20깔끔이대구탕,https://m.place.naver.com/restaurant/1172625176,"매운탕,해물탕",4.4,137,3,0
172,애기족발,한식,족발/보쌈전문,한식 음식점업,중동,35.16967605,129.1707905,한식족발 보쌈전문한식 음식점업,중동%20애기족발,https://m.place.naver.com/restaurant/1545705004,"족발,보쌈",4.53,16,3,0
173,착한전복전문점,한식,한식/백반/한정식,한식 음식점업,중동,35.17103533,129.1728409,한식한식 백반 한정식한식 음식점업,중동%20착한전복전문점,https://m.place.naver.com/restaurant/1075173262,전복요리,4.25,21,3,0
174,아궁이식당,한식,한식/백반/한정식,한식 음식점업,중동,35.16240482,129.1630029,한식한식 백반 한정식한식 음식점업,중동%20아궁이식당,https://m.place.naver.com/restaurant/1079171753,한식,4.43,37,3,0
175,김밥천국,분식,라면김밥분식,분식 및 김밥 전문점,중동,35.16618936,129.1687538,분식라면김밥분식분식 및 김밥 전문점,중동%20김밥천국,https://m.place.naver.com/restaurant/18806295,분식,4.23,522,3,0
176,베스킨라빈스,커피점/카페,커피전문점/카페/다방,비알콜 음료점업,중동,35.1625554,129.1632795,커피점 카페커피전문점 카페 다방비알콜 음료점업,중동%20베스킨라빈스,https://m.place.naver.com/restaurant/37816270,아이스크림,4.47,611,3,0
177,배스킨라빈스31,패스트푸드,아이스크림판매,제과점업,중동,35.16633569,129.1704024,패스트푸드아이스크림판매제과점업,중동%20배스킨라빈스31,https://m.place.naver.com/restaurant/37816270,아이스크림,4.47,611,3,0
178,배스킨라빈스31,패스트푸드,아이스크림판매,제과점업,중동,35.16604015,129.1674015,패스트푸드아이스크림판매제과점업,중동%20배스킨라빈스31,https://m.place.naver.com/restaurant/37816270,아이스크림,4.47,611,3,0
179,배스킨라빈스,패스트푸드,아이스크림판매,제과점업,중동,35.16604015,129.1674015,패스트푸드아이스크림판매제과점업,중동%20배스킨라빈스,https://m.place.naver.com/restaurant/37816270,아이스크림,4.47,611,3,0
180,홍짜장,중식,중국음식/중국집,중식 음식점업,중동,35.16252761,129.161479,중식중국음식 중국집중식 음식점업,중동%20홍짜장,https://m.place.naver.com/restaurant/1511819309,중식당,4.43,73,3,0
181,큐,유흥주점,관광/유흥주점,일반유흥 주점업,중동,35.16177503,129.1656941,유흥주점관광 유흥주점일반유흥 주점업,중동%20큐,https://m.place.naver.com/restaurant/20343889,"자동차정비,수리",4.08,97,3,0
182,삼환축산,한식,기타고기요리,한식 음식점업,중동,35.16436946,129.1686619,한식기타고기요리한식 음식점업,중동%20삼환축산,https://m.place.naver.com/restaurant/1238516524,"육류,고기요리",4.48,286,30,0
183,조선닭볶음탕,한식,한식/백반/한정식,한식 음식점업,중동,35.16297725,129.173746,한식한식 백반 한정식한식 음식점업,중동%20조선닭볶음탕,https://m.place.naver.com/restaurant/1939701107,닭볶음탕,4.38,64,30,0
184,해주면옥,한식,냉면집,한식 음식점업,중동,35.16271399,129.1645989,한식냉면집한식 음식점업,중동%20해주면옥,https://m.place.naver.com/restaurant/16579420,한식,4.41,713,302,0
185,미포씨와,유흥주점,기타일반유흥주점,일반유흥 주점업,중동,35.15747738,129.1729645,유흥주점기타일반유흥주점일반유흥 주점업,중동%20미포씨와,https://m.place.naver.com/restaurant/1267337469,와인,3.99,413,303,0
186,치타,한식,한식/백반/한정식,한식 음식점업,중동,35.16443106,129.1818237,한식한식 백반 한정식한식 음식점업,중동%20치타,https://m.place.naver.com/restaurant/1746129761,"카페,디저트",4.56,377,306,0
187,블랙업커피,커피점/카페,커피전문점/카페/다방,비알콜 음료점업,중동,35.16344432,129.1645764,커피점 카페커피전문점 카페 다방비알콜 음료점업,중동%20블랙업커피,https://m.place.naver.com/restaurant/38232927,"카페,디저트",4.56,854,306,0
188,블랙업커피,커피점/카페,커피전문점/카페/다방,비알콜 음료점업,중동,35.16134685,129.1680369,커피점 카페커피전문점 카페 다방비알콜 음료점업,중동%20블랙업커피,https://m.place.naver.com/restaurant/38232927,"카페,디저트",4.56,854,306,0
189,모어댄,커피점/카페,커피전문점/카페/다방,비알콜 음료점업,중동,35.16210013,129.1749627,커피점 카페커피전문점 카페 다방비알콜 음료점업,중동%20모어댄,https://m.place.naver.com/restaurant/1245455979,"카페,디저트",4.51,117,31,0
190,털보횟집,일식/수산물,횟집,한식 음식점업,중동,35.16741844,129.1758735,일식 수산물횟집한식 음식점업,중동%20털보횟집,https://m.place.naver.com/restaurant/338852456,생선회,4.45,132,32,0
191,가야포차선지국밥,유흥주점,소주방/포장마차,기타 주점업,중동,35.17113108,129.1722604,유흥주점소주방 포장마차기타 주점업,중동%20가야포차선지국밥,https://m.place.naver.com/restaurant/37830332,국밥,4.36,210,32,0
192,서울깍두기,한식,한식/백반/한정식,한식 음식점업,중동,35.16222043,129.1727802,한식한식 백반 한정식한식 음식점업,중동%20서울깍두기,https://m.place.naver.com/restaurant/17005696,한식,4.25,182,33,0
193,홈메이드,양식,정통양식/경양식,서양식 음식점업,중동,35.16164179,129.1766794,양식정통양식 경양식서양식 음식점업,중동%20홈메이드,https://m.place.naver.com/restaurant/37213766,"카페,디저트",4.3,335,33,0
194,해운대이름난암소갈비,한식,갈비/삼겹살,한식 음식점업,중동,35.16193095,129.1672879,한식갈비 삼겹살한식 음식점업,중동%20해운대이름난암소갈비,https://m.place.naver.com/restaurant/11484413,"육류,고기요리",4.63,483,338,33
195,해운대이름난암소갈비,한식,갈비/삼겹살,한식 음식점업,중동,35.16208353,129.164546,한식갈비 삼겹살한식 음식점업,중동%20해운대이름난암소갈비,https://m.place.naver.com/restaurant/11484413,"육류,고기요리",4.63,483,338,0
196,해운대이름난암소갈비,한식,갈비/삼겹살,한식 음식점업,중동,35.16270363,129.1694174,한식갈비 삼겹살한식 음식점업,중동%20해운대이름난암소갈비,https://m.place.naver.com/restaurant/11484413,"육류,고기요리",4.63,483,338,0
197,리춘시장,중식,중국음식/중국집,중식 음식점업,중동,35.15983569,129.1611443,중식중국음식 중국집중식 음식점업,중동%20리춘시장,https://m.place.naver.com/restaurant/1180044510,중식당,4.35,338,34,0
198,아티스타[Artista],일식/수산물,음식점-일식,일식 음식점업,중동,35.16720565,129.171787,일식 수산물음식점-일식일식 음식점업,중동%20아티스타[Artista],https://m.place.naver.com/restaurant/21060978,"멕시코,남미음식",4.15,39,34,0
199,ARTISTA,양식,정통양식/경양식,서양식 음식점업,중동,35.16720565,129.171787,양식정통양식 경양식서양식 음식점업,중동%20ARTISTA,https://m.place.naver.com/restaurant/21060978,"멕시코,남미음식",4.15,39,34,0
200,할매김밥,분식,라면김밥분식,분식 및 김밥 전문점,중동,35.16221725,129.1628246,분식라면김밥분식분식 및 김밥 전문점,중동%20할매김밥,https://m.place.naver.com/restaurant/35337786,김밥,4.15,146,35,0
201,키친동백,양식,기타전문서양음식점,서양식 음식점업,중동,35.15780847,129.1787864,양식기타전문서양음식점서양식 음식점업,중동%20키친동백,https://m.place.naver.com/restaurant/37778822,이탈리아음식,4.37,189,355,0
202,노홍만두,분식,국수/만두/칼국수,분식 및 김밥 전문점,중동,35.1614273,129.1624841,분식국수 만두 칼국수분식 및 김밥 전문점,중동%20노홍만두,https://m.place.naver.com/restaurant/20980668,만두,4.36,837,355,0
203,젠스시,일식/수산물,음식점-초밥전문,일식 음식점업,중동,35.17082329,129.1714656,일식 수산물음식점-초밥전문일식 음식점업,중동%20젠스시,https://m.place.naver.com/restaurant/13572545,"초밥,롤",4.42,59,357,0
204,예이제,한식,한식/백반/한정식,한식 음식점업,중동,35.16098812,129.1669122,한식한식 백반 한정식한식 음식점업,중동%20예이제,https://m.place.naver.com/restaurant/38695522,한정식,4.15,144,359,10
205,예이제,한식,갈비/삼겹살,한식 음식점업,중동,35.16021589,129.1666048,한식갈비 삼겹살한식 음식점업,중동%20예이제,https://m.place.naver.com/restaurant/38695522,한정식,4.15,144,359,0
206,예이제한정식,한식,한정식전문,한식 음식점업,중동,35.16141689,129.1663805,한식한정식전문한식 음식점업,중동%20예이제한정식,https://m.place.naver.com/restaurant/38695522,한정식,4.15,144,359,0
207,예이제한정식,한식,한식/백반/한정식,한식 음식점업,중동,35.16098812,129.1669122,한식한식 백반 한정식한식 음식점업,중동%20예이제한정식,https://m.place.naver.com/restaurant/38695522,한정식,4.15,144,359,0
208,한마음회센터,일식/수산물,횟집,한식 음식점업,중동,35.15852191,129.1712124,일식 수산물횟집한식 음식점업,중동%20한마음회센터,https://m.place.naver.com/restaurant/21240373,생선회,4.26,156,36,0
209,브론즈웨인커피,커피점/카페,커피전문점/카페/다방,비알콜 음료점업,중동,35.16265076,129.1664859,커피점 카페커피전문점 카페 다방비알콜 음료점업,중동%20브론즈웨인커피,https://m.place.naver.com/restaurant/1165911809,카페,4.63,421,376,0
210,카페베네해운대청사포점,커피점/카페,커피전문점/카페/다방,비알콜 음료점업,중동,35.16100704,129.1936503,커피점 카페커피전문점 카페 다방비알콜 음료점업,중동%20카페베네해운대청사포점,https://m.place.naver.com/restaurant/134019683,카페,4.34,456,38,0
211,달맞이마산아구찜,일식/수산물,해물찜/탕전문,한식 음식점업,중동,35.15691983,129.1802553,일식 수산물해물찜 탕전문한식 음식점업,중동%20달맞이마산아구찜,https://m.place.naver.com/restaurant/12962055,"아귀찜,해물찜",4.13,147,381,0
212,카페디아트,커피점/카페,커피전문점/카페/다방,비알콜 음료점업,중동,35.16074495,129.1918903,커피점 카페커피전문점 카페 다방비알콜 음료점업,중동%20카페디아트,https://m.place.naver.com/restaurant/31751982,카페,4.56,644,384,0
213,디아트커피,커피점/카페,커피전문점/카페/다방,비알콜 음료점업,중동,35.16074495,129.1918903,커피점 카페커피전문점 카페 다방비알콜 음료점업,중동%20디아트커피,https://m.place.naver.com/restaurant/31751982,카페,4.56,644,384,0
214,샤브야,별식/퓨전요리,샤브샤브전문,한식 음식점업,중동,35.15832359,129.18235,별식 퓨전요리샤브샤브전문한식 음식점업,중동%20샤브야,https://m.place.naver.com/restaurant/33703292,샤브샤브,4.6,1238,385,0
215,동촌물회,일식/수산물,수산물전문음식점-종합,한식 음식점업,중동,35.16741677,129.1695287,일식 수산물수산물전문음식점-종합한식 음식점업,중동%20동촌물회,https://m.place.naver.com/restaurant/36228283,"해물,생선요리",4.67,117,39,0
216,장미맨숀,유흥주점,호프/맥주,기타 주점업,중동,35.16046485,129.1622728,유흥주점호프 맥주기타 주점업,중동%20장미맨숀,https://m.place.naver.com/restaurant/1916365349,요리주점,4.34,77,39,0
217,닉스그릴,양식,기타전문서양음식점,서양식 음식점업,중동,35.16023747,129.165299,양식기타전문서양음식점서양식 음식점업,중동%20닉스그릴,https://m.place.naver.com/restaurant/37182958,이탈리아음식,4.21,56,390,0
218,해금강곰장어,일식/수산물,곰장어전문,한식 음식점업,중동,35.16110183,129.1616453,일식 수산물곰장어전문한식 음식점업,중동%20해금강곰장어,https://m.place.naver.com/restaurant/32721277,한식,4.28,388,394,0
219,라꽁띠,한식,한식/백반/한정식,한식 음식점업,중동,35.16258504,129.1890084,한식한식 백반 한정식한식 음식점업,중동%20라꽁띠,https://m.place.naver.com/restaurant/35954338,양식,4.47,617,396,0
220,홍탕,중식,중국음식/중국집,중식 음식점업,중동,35.17137251,129.1724615,중식중국음식 중국집중식 음식점업,중동%20홍탕,https://m.place.naver.com/restaurant/598681957,중식당,4.58,1431,397,0
221,BBQ치킨,닭/오리요리,후라이드/양념치킨,치킨 전문점,중동,35.17137251,129.1724615,닭 오리요리후라이드 양념치킨치킨 전문점,중동%20BBQ치킨,https://m.place.naver.com/restaurant/1895530788,"치킨,닭강정",4.22,130,4,0
222,소문난튀김집,분식,라면김밥분식,분식 및 김밥 전문점,중동,35.1612939,129.1622956,분식라면김밥분식분식 및 김밥 전문점,중동%20소문난튀김집,https://m.place.naver.com/restaurant/32614422,"족발,보쌈",4,29,4,0
223,장수통닭,닭/오리요리,후라이드/양념치킨,치킨 전문점,중동,35.16310469,129.1623982,닭 오리요리후라이드 양념치킨치킨 전문점,중동%20장수통닭,https://m.place.naver.com/restaurant/1177361416,"치킨,닭강정",4.5,32,4,0
224,밥파는집,한식,한정식전문,한식 음식점업,중동,35.16197651,129.1663007,한식한정식전문한식 음식점업,중동%20밥파는집,https://m.place.naver.com/restaurant/1719629376,"백반,가정식",4.52,38,4,0
225,몽,양식,정통양식/경양식,서양식 음식점업,중동,35.15746999,129.1755876,양식정통양식 경양식서양식 음식점업,중동%20몽,https://m.place.naver.com/restaurant/37351452,"도시락,컵밥",4.17,45,4,0
226,네오피자,패스트푸드,피자전문,"피자, 햄버거, 샌드위치 및 유사 음식점업",중동,35.17137251,129.1724615,"패스트푸드피자전문피자, 햄버거, 샌드위치 및 유사 음식점업",중동%20네오피자,https://m.place.naver.com/restaurant/1363025722,피자,4.59,47,4,0
227,일광반점,중식,중국음식/중국집,중식 음식점업,중동,35.16244287,129.1730797,중식중국음식 중국집중식 음식점업,중동%20일광반점,https://m.place.naver.com/restaurant/32128705,중식당,4.24,62,4,0
228,신토불이식당,한식,한식/백반/한정식,한식 음식점업,중동,35.16185856,129.1757056,한식한식 백반 한정식한식 음식점업,중동%20신토불이식당,https://m.place.naver.com/restaurant/1503265918,기사식당,4.37,77,4,0
229,부산동창오뎅,분식,라면김밥분식,분식 및 김밥 전문점,중동,35.16174074,129.1626971,분식라면김밥분식분식 및 김밥 전문점,중동%20부산동창오뎅,https://m.place.naver.com/restaurant/16577524,"오뎅,꼬치",4.32,99,4,0
230,모리,일식/수산물,횟집,한식 음식점업,중동,35.16070976,129.1918019,일식 수산물횟집한식 음식점업,중동%20모리,https://m.place.naver.com/restaurant/1641089276,일본식라면,4.65,115,40,0
231,한상가득,한식,한식/백반/한정식,한식 음식점업,중동,35.16477492,129.1630586,한식한식 백반 한정식한식 음식점업,중동%20한상가득,https://m.place.naver.com/restaurant/57967275,"육류,고기요리",4.47,391,401,0
232,해운대산곰장어,일식/수산물,민물장어전문,한식 음식점업,중동,35.16116951,129.1621072,일식 수산물민물장어전문한식 음식점업,중동%20해운대산곰장어,https://m.place.naver.com/restaurant/1206044930,"장어,먹장어요리",4.11,157,407,0
233,새아침맛집,일식/수산물,갈치/생선구이,한식 음식점업,중동,35.15883396,129.1706352,일식 수산물갈치 생선구이한식 음식점업,중동%20새아침맛집,https://m.place.naver.com/restaurant/11846704,생선구이,4.28,704,407,0
234,지비디,커피점/카페,커피전문점/카페/다방,비알콜 음료점업,중동,35.16873036,129.1716442,커피점 카페커피전문점 카페 다방비알콜 음료점업,중동%20지비디,https://m.place.naver.com/restaurant/1531053693,카페,4.6,148,411,0
235,키친,한식,한식/백반/한정식,한식 음식점업,중동,35.16098812,129.1669122,한식한식 백반 한정식한식 음식점업,중동%20키친,https://m.place.naver.com/restaurant/37411506,양식,4.57,132,414,0
236,스타벅스,커피점/카페,커피전문점/카페/다방,비알콜 음료점업,중동,35.16021589,129.1666048,커피점 카페커피전문점 카페 다방비알콜 음료점업,중동%20스타벅스,https://m.place.naver.com/restaurant/1651676104,카페,4.44,1988,42,0
237,스타벅스,커피점/카페,커피전문점/카페/다방,비알콜 음료점업,중동,35.16604015,129.1674015,커피점 카페커피전문점 카페 다방비알콜 음료점업,중동%20스타벅스,https://m.place.naver.com/restaurant/1651676104,카페,4.44,1988,42,0
238,스타벅스,커피점/카페,커피전문점/카페/다방,비알콜 음료점업,중동,35.16143752,129.1707822,커피점 카페커피전문점 카페 다방비알콜 음료점업,중동%20스타벅스,https://m.place.naver.com/restaurant/1651676104,카페,4.44,1988,42,0
239,스타벅스,커피점/카페,커피전문점/카페/다방,비알콜 음료점업,중동,35.15793626,129.1823224,커피점 카페커피전문점 카페 다방비알콜 음료점업,중동%20스타벅스,https://m.place.naver.com/restaurant/1651676104,카페,4.44,1988,42,0
240,스타벅스,커피점/카페,커피전문점/카페/다방,비알콜 음료점업,중동,35.16046485,129.1622728,커피점 카페커피전문점 카페 다방비알콜 음료점업,중동%20스타벅스,https://m.place.naver.com/restaurant/1651676104,카페,4.44,1989,42,0
241,스타벅스,커피점/카페,커피전문점/카페/다방,비알콜 음료점업,중동,35.16508598,129.1644571,커피점 카페커피전문점 카페 다방비알콜 음료점업,중동%20스타벅스,https://m.place.naver.com/restaurant/1651676104,카페,4.44,1989,42,0
242,스타벅스,커피점/카페,커피전문점/카페/다방,비알콜 음료점업,중동,35.16724148,129.1680773,커피점 카페커피전문점 카페 다방비알콜 음료점업,중동%20스타벅스,https://m.place.naver.com/restaurant/1651676104,카페,4.44,1989,42,0
243,순돌이보리밥,한식,보리밥전문,한식 음식점업,중동,35.16269044,129.1670463,한식보리밥전문한식 음식점업,중동%20순돌이보리밥,https://m.place.naver.com/restaurant/30993633,보리밥,4.43,263,42,0
244,경미가소곱창전골,한식,곱창/양구이전문,한식 음식점업,중동,35.16136911,129.175984,한식곱창 양구이전문한식 음식점업,중동%20경미가소곱창전골,https://m.place.naver.com/restaurant/1265246919,"곱창,막창,양",4.44,40,42,0
245,어글리팬,유흥주점,호프/맥주,기타 주점업,중동,35.1612334,129.172316,유흥주점호프 맥주기타 주점업,중동%20어글리팬,https://m.place.naver.com/restaurant/1109358779,요리주점,4.74,66,42,0
246,경북횟집,일식/수산물,횟집,한식 음식점업,중동,35.15910189,129.1708915,일식 수산물횟집한식 음식점업,중동%20경북횟집,https://m.place.naver.com/restaurant/13572452,생선회,3.97,67,42,0
247,도레도레,커피점/카페,커피전문점/카페/다방,비알콜 음료점업,중동,35.16075623,129.1916599,커피점 카페커피전문점 카페 다방비알콜 음료점업,중동%20도레도레,https://m.place.naver.com/restaurant/37497560,케이크전문,4.43,682,426,0
248,도레도레,커피점/카페,커피전문점/카페/다방,비알콜 음료점업,중동,35.1609092,129.1935171,커피점 카페커피전문점 카페 다방비알콜 음료점업,중동%20도레도레,https://m.place.naver.com/restaurant/37497560,케이크전문,4.43,682,426,0
249,카페씨,커피점/카페,커피전문점/카페/다방,비알콜 음료점업,중동,35.15852191,129.1712124,커피점 카페커피전문점 카페 다방비알콜 음료점업,중동%20카페씨,https://m.place.naver.com/restaurant/1211710717,"카페,디저트",4.38,255,428,0
250,달맞이국수집,분식,라면김밥분식,분식 및 김밥 전문점,중동,35.16202428,129.1725578,분식라면김밥분식분식 및 김밥 전문점,중동%20달맞이국수집,https://m.place.naver.com/restaurant/1530973175,국수,4.52,108,43,0
251,마산아구찜,일식/수산물,아구전문,한식 음식점업,중동,35.16358508,129.1658736,일식 수산물아구전문한식 음식점업,중동%20마산아구찜,https://m.place.naver.com/restaurant/13012964,"아귀찜,해물찜",4.3,287,43,3
252,마산아구찜뽈찜,일식/수산물,아구전문,한식 음식점업,중동,35.16358508,129.1658736,일식 수산물아구전문한식 음식점업,중동%20마산아구찜뽈찜,https://m.place.naver.com/restaurant/13012964,"아귀찜,해물찜",4.3,287,43,0
253,한끼,한식,한식/백반/한정식,한식 음식점업,중동,35.16343969,129.1631823,한식한식 백반 한정식한식 음식점업,중동%20한끼,https://m.place.naver.com/restaurant/269855999,덮밥,4.48,52,43,0
254,엘시티,한식,한식/백반/한정식,한식 음식점업,중동,35.16155725,129.1658447,한식한식 백반 한정식한식 음식점업,중동%20엘시티,https://m.place.naver.com/restaurant/1237400492,레지던스,4.42,165,438,0
255,고이,양식,돈가스전문점,서양식 음식점업,중동,35.16256947,129.1627528,양식돈가스전문점서양식 음식점업,중동%20고이,https://m.place.naver.com/restaurant/1371035441,"사진,스튜디오",4.86,651,44,0
256,백번집,한식,한식/백반/한정식,한식 음식점업,중동,35.16280137,129.1648855,한식한식 백반 한정식한식 음식점업,중동%20백번집,https://m.place.naver.com/restaurant/21487627,"백반,가정식",3.92,92,44,0
257,이바돔,한식,한식/백반/한정식,한식 음식점업,중동,35.16250017,129.1633994,한식한식 백반 한정식한식 음식점업,중동%20이바돔,https://m.place.naver.com/restaurant/1205481317,닭갈비,4.27,68,46,0
258,쭈쭈가리비,한식,한식/백반/한정식,한식 음식점업,중동,35.1612228,129.1937083,한식한식 백반 한정식한식 음식점업,중동%20쭈쭈가리비,https://m.place.naver.com/restaurant/38420032,조개요리,4.51,129,462,0
259,달인막창,한식,곱창/양구이전문,한식 음식점업,중동,35.16369019,129.1624395,한식곱창 양구이전문한식 음식점업,중동%20달인막창,https://m.place.naver.com/restaurant/1088169857,"곱창,막창,양",4.82,6492,464,0
260,양산국밥,한식,해장국/감자탕,한식 음식점업,중동,35.16786366,129.1727185,한식해장국 감자탕한식 음식점업,중동%20양산국밥,https://m.place.naver.com/restaurant/11824365,국밥,4.19,953,469,0
261,양산돼지국밥,한식,해장국/감자탕,한식 음식점업,중동,35.16786366,129.1727185,한식해장국 감자탕한식 음식점업,중동%20양산돼지국밥,https://m.place.naver.com/restaurant/11824365,국밥,4.19,953,469,0
262,버거&파스타,양식,스파게티전문점,서양식 음식점업,중동,35.16013949,129.1614231,양식스파게티전문점서양식 음식점업,중동%20버거&파스타,https://m.place.naver.com/restaurant/1346654319,햄버거,4.51,501,473,0
263,요리일번지,중식,중국음식/중국집,중식 음식점업,중동,35.17137251,129.1724615,중식중국음식 중국집중식 음식점업,중동%20요리일번지,https://m.place.naver.com/restaurant/18794902,"순대,순댓국",4.25,780,476,0
264,우리횟집,일식/수산물,횟집,한식 음식점업,중동,35.16208353,129.164546,일식 수산물횟집한식 음식점업,중동%20우리횟집,https://m.place.naver.com/restaurant/18377257,생선회,4.34,1129,478,0
265,일식우동전문점,분식,우동전문점,분식 및 김밥 전문점,중동,35.15920596,129.1610146,분식우동전문점분식 및 김밥 전문점,중동%20일식우동전문점,https://m.place.naver.com/restaurant/1470089527,"초밥,롤",4.35,468,48,0
266,국빈,유흥주점,룸살롱/단란주점,일반유흥 주점업,중동,35.16324125,129.1622574,유흥주점룸살롱 단란주점일반유흥 주점업,중동%20국빈,https://m.place.naver.com/restaurant/13063677,중식당,4.34,118,5,0
267,퓨전포차,유흥주점,소주방/포장마차,기타 주점업,중동,35.16358562,129.1620648,유흥주점소주방 포장마차기타 주점업,중동%20퓨전포차,https://m.place.naver.com/restaurant/1603411935,포장마차,4.5,32,5,0
268,뚜레쥬르해운대중동점,제과제빵떡케익,제과점,제과점업,중동,35.16748905,129.1676417,제과제빵떡케익제과점제과점업,중동%20뚜레쥬르해운대중동점,https://m.place.naver.com/restaurant/38248588,베이커리,4.4,462,5,0
269,홍콩반점0410,중식,중국음식/중국집,중식 음식점업,중동,35.16290231,129.1628234,중식중국음식 중국집중식 음식점업,중동%20홍콩반점0410,https://m.place.naver.com/restaurant/1722647513,중식당,4.55,62,5,0
270,홍콩반점,중식,중국음식/중국집,중식 음식점업,중동,35.16290231,129.1628234,중식중국음식 중국집중식 음식점업,중동%20홍콩반점,https://m.place.naver.com/restaurant/1722647513,중식당,4.55,62,5,0
271,재첩마을섬진강,한식,재첩국전문,한식 음식점업,중동,35.17171826,129.1730592,한식재첩국전문한식 음식점업,중동%20재첩마을섬진강,https://m.place.naver.com/restaurant/16547393,한식,4.56,32,50,23
272,징기스,한식,한식/백반/한정식,한식 음식점업,중동,35.1660336,129.169015,한식한식 백반 한정식한식 음식점업,중동%20징기스,https://m.place.naver.com/restaurant/1906069065,양갈비,4.57,469,507,0
273,잔치집생삼겹,한식,갈비/삼겹살,한식 음식점업,중동,35.16187807,129.1615356,한식갈비 삼겹살한식 음식점업,중동%20잔치집생삼겹,https://m.place.naver.com/restaurant/38403761,돼지고기구이,4.71,120,51,0
274,충무해물산곰장어,일식/수산물,곰장어전문,한식 음식점업,중동,35.16105161,129.1621824,일식 수산물곰장어전문한식 음식점업,중동%20충무해물산곰장어,https://m.place.naver.com/restaurant/35221616,"해물,생선요리",4.3,22,51,0
275,마루팥빙수,커피점/카페,커피전문점/카페/다방,비알콜 음료점업,중동,35.16434825,129.1689909,커피점 카페커피전문점 카페 다방비알콜 음료점업,중동%20마루팥빙수,https://m.place.naver.com/restaurant/32999091,"카페,디저트",4.31,1310,519,0
276,할매집원조복국,일식/수산물,복전문,한식 음식점업,중동,35.16036439,129.1708327,일식 수산물복전문한식 음식점업,중동%20할매집원조복국,https://m.place.naver.com/restaurant/11596248,복어요리,4.4,773,526,0
277,할매복국,일식/수산물,복전문,한식 음식점업,중동,35.15917559,129.1707279,일식 수산물복전문한식 음식점업,중동%20할매복국,https://m.place.naver.com/restaurant/11596248,복어요리,4.4,773,526,0
278,솔내음한정식,한식,한정식전문,한식 음식점업,중동,35.15938643,129.1740895,한식한정식전문한식 음식점업,중동%20솔내음한정식,https://m.place.naver.com/restaurant/11846341,한정식,4.27,582,528,0
279,네일수다,유흥주점,호프/맥주,기타 주점업,중동,35.17137251,129.1724615,유흥주점호프 맥주기타 주점업,중동%20네일수다,https://m.place.naver.com/restaurant/36998667,"네일아트,네일샵",4.62,27,53,0
280,해운대구이,한식,한식/백반/한정식,한식 음식점업,중동,35.16177062,129.1939139,한식한식 백반 한정식한식 음식점업,중동%20해운대구이,https://m.place.naver.com/restaurant/1413742785,돼지고기구이,4.36,480,53,0
281,천지연해운대중동점,한식,갈비/삼겹살,한식 음식점업,중동,35.16794615,129.1679117,한식갈비 삼겹살한식 음식점업,중동%20천지연해운대중동점,https://m.place.naver.com/restaurant/1413742785,돼지고기구이,4.36,481,53,0
282,할매집,한식,한식/백반/한정식,한식 음식점업,중동,35.16081407,129.1931096,한식한식 백반 한정식한식 음식점업,중동%20할매집,https://m.place.naver.com/restaurant/1034553261,분식,4.32,879,53,12
283,연남물갈비,한식,갈비/삼겹살,한식 음식점업,중동,35.16240482,129.1630029,한식갈비 삼겹살한식 음식점업,중동%20연남물갈비,https://m.place.naver.com/restaurant/1865492501,"육류,고기요리",4.42,97,53,0
284,해송집,유흥주점,호프/맥주,기타 주점업,중동,35.16243534,129.1645181,유흥주점호프 맥주기타 주점업,중동%20해송집,https://m.place.naver.com/restaurant/16578764,"육류,고기요리",4.41,228,536,3
285,봉자네실비집,한식,한식/백반/한정식,한식 음식점업,중동,35.16120367,129.1623053,한식한식 백반 한정식한식 음식점업,중동%20봉자네실비집,https://m.place.naver.com/restaurant/38258549,한식,4.47,122,54,0
286,기승이네왕족발,한식,족발/보쌈전문,한식 음식점업,중동,35.16121658,129.1618994,한식족발 보쌈전문한식 음식점업,중동%20기승이네왕족발,https://m.place.naver.com/restaurant/31729096,"족발,보쌈",4.27,56,54,0
287,콜라보위드문탠바,양식,정통양식/경양식,서양식 음식점업,중동,35.15894066,129.1745112,양식정통양식 경양식서양식 음식점업,중동%20콜라보위드문탠바,https://m.place.naver.com/restaurant/496846450,"카페,디저트",4.3,1219,541,0
288,스시야마,일식/수산물,음식점-초밥전문,일식 음식점업,중동,35.16498963,129.1688464,일식 수산물음식점-초밥전문일식 음식점업,중동%20스시야마,https://m.place.naver.com/restaurant/1154845097,"초밥,롤",4.52,345,55,0
289,기장식당,한식,한식/백반/한정식,한식 음식점업,중동,35.16255898,129.1647833,한식한식 백반 한정식한식 음식점업,중동%20기장식당,https://m.place.naver.com/restaurant/13573570,"해물,생선요리",4.28,694,550,0
290,이름난기장산곰장어,일식/수산물,민물장어전문,한식 음식점업,중동,35.16207115,129.1630201,일식 수산물민물장어전문한식 음식점업,중동%20이름난기장산곰장어,https://m.place.naver.com/restaurant/13573570,"해물,생선요리",4.28,694,550,0
291,똘이네횟집,일식/수산물,횟집,한식 음식점업,중동,35.16445142,129.1685752,일식 수산물횟집한식 음식점업,중동%20똘이네횟집,https://m.place.naver.com/restaurant/35973556,생선회,4.03,65,56,0
292,똘이네횟집,커피점/카페,커피전문점/카페/다방,비알콜 음료점업,중동,35.16455108,129.1685218,커피점 카페커피전문점 카페 다방비알콜 음료점업,중동%20똘이네횟집,https://m.place.naver.com/restaurant/35973556,생선회,4.03,65,56,0
293,풍원장고기정찬,한식,한식/백반/한정식,한식 음식점업,중동,35.15963749,129.1825665,한식한식 백반 한정식한식 음식점업,중동%20풍원장고기정찬,https://m.place.naver.com/restaurant/1246097097,한식,4.35,852,564,0
294,원산냉면,한식,냉면집,한식 음식점업,중동,35.16368589,129.1694424,한식냉면집한식 음식점업,중동%20원산냉면,https://m.place.naver.com/restaurant/11846674,냉면,4.15,151,58,0
295,원산면옥,한식,냉면집,한식 음식점업,중동,35.15920596,129.1610146,한식냉면집한식 음식점업,중동%20원산면옥,https://m.place.naver.com/restaurant/11846674,냉면,4.15,151,58,0
296,원산면옥,한식,냉면집,한식 음식점업,중동,35.16368589,129.1694424,한식냉면집한식 음식점업,중동%20원산면옥,https://m.place.naver.com/restaurant/11846674,냉면,4.15,151,58,0
297,누룽지+,한식,한식/백반/한정식,한식 음식점업,중동,35.16496259,129.168846,한식한식 백반 한정식한식 음식점업,중동%20누룽지+,https://m.place.naver.com/restaurant/37445582,"치킨,닭강정",4.52,161,58,0
298,승한막창,한식,곱창/양구이전문,한식 음식점업,중동,35.16343969,129.1631823,한식곱창 양구이전문한식 음식점업,중동%20승한막창,https://m.place.naver.com/restaurant/1696238534,"곱창,막창,양",4.9,2287,58,0
299,그린나무,커피점/카페,커피전문점/카페/다방,비알콜 음료점업,중동,35.16741061,129.1692323,커피점 카페커피전문점 카페 다방비알콜 음료점업,중동%20그린나무,https://m.place.naver.com/restaurant/21656640,카페,4.24,74,59,0
300,커피나무,커피점/카페,커피전문점/카페/다방,비알콜 음료점업,중동,35.16152084,129.1761398,커피점 카페커피전문점 카페 다방비알콜 음료점업,중동%20커피나무,https://m.place.naver.com/restaurant/21656640,카페,4.24,74,59,0
301,봉구비어,유흥주점,호프/맥주,기타 주점업,중동,35.16368589,129.1694424,유흥주점호프 맥주기타 주점업,중동%20봉구비어,https://m.place.naver.com/restaurant/36428266,"맥주,호프",4.04,112,6,0
302,카페코트,커피점/카페,커피전문점/카페/다방,비알콜 음료점업,중동,35.16851587,129.1695884,커피점 카페커피전문점 카페 다방비알콜 음료점업,중동%20카페코트,https://m.place.naver.com/restaurant/1064778458,테이크아웃커피,4.75,135,6,0
303,명향,한식,한식/백반/한정식,한식 음식점업,중동,35.16271399,129.1645989,한식한식 백반 한정식한식 음식점업,중동%20명향,https://m.place.naver.com/restaurant/1883671555,한식,4.48,145,6,10
304,해운풍경,유흥주점,호프/맥주,기타 주점업,중동,35.16202915,129.172986,유흥주점호프 맥주기타 주점업,중동%20해운풍경,https://m.place.naver.com/restaurant/1751640557,"전통,민속주점",4.54,15,6,0
305,잔치집국수,분식,국수/만두/칼국수,분식 및 김밥 전문점,중동,35.16718371,129.1712598,분식국수 만두 칼국수분식 및 김밥 전문점,중동%20잔치집국수,https://m.place.naver.com/restaurant/1819988388,국수,4.3,156,6,0
306,에스,일식/수산물,횟집,한식 음식점업,중동,35.16079993,129.1927143,일식 수산물횟집한식 음식점업,중동%20에스,https://m.place.naver.com/restaurant/37712947,피부과,4.52,254,6,0
307,땅땅치킨,닭/오리요리,후라이드/양념치킨,치킨 전문점,중동,35.16013949,129.1614231,닭 오리요리후라이드 양념치킨치킨 전문점,중동%20땅땅치킨,https://m.place.naver.com/restaurant/31812566,"치킨,닭강정",4.72,27,6,0
308,바다이야기,일식/수산물,횟집,한식 음식점업,중동,35.16075623,129.1916599,일식 수산물횟집한식 음식점업,중동%20바다이야기,https://m.place.naver.com/restaurant/16685216,조개요리,4.18,35,6,0
309,로데오식당,한식,한식/백반/한정식,한식 음식점업,중동,35.16368589,129.1694424,한식한식 백반 한정식한식 음식점업,중동%20로데오식당,https://m.place.naver.com/restaurant/1440079346,"치킨,닭강정",4.19,586,6,0
310,유명한꼼장어집,일식/수산물,곰장어전문,한식 음식점업,중동,35.16074908,129.161772,일식 수산물곰장어전문한식 음식점업,중동%20유명한꼼장어집,https://m.place.naver.com/restaurant/31383415,"해물,생선요리",4.3,213,60,0
311,우뚝감자탕,한식,해장국/감자탕,한식 음식점업,중동,35.16192222,129.160691,한식해장국 감자탕한식 음식점업,중동%20우뚝감자탕,https://m.place.naver.com/restaurant/67414429,해장국,4.11,350,60,0
312,에이치.어스,커피점/카페,커피전문점/카페/다방,비알콜 음료점업,중동,35.16083819,129.1934063,커피점 카페커피전문점 카페 다방비알콜 음료점업,중동%20에이치.어스,https://m.place.naver.com/restaurant/1197479803,카페,4.47,891,620,0
313,마라도,한식,한식/백반/한정식,한식 음식점업,중동,35.15843698,129.1706734,한식한식 백반 한정식한식 음식점업,중동%20마라도,https://m.place.naver.com/restaurant/16579807,생선회,4.1,109,65,0
314,만부부대찌개,한식,부대찌개/섞어찌개,한식 음식점업,중동,35.16241332,129.1705438,한식부대찌개 섞어찌개한식 음식점업,중동%20만부부대찌개,https://m.place.naver.com/restaurant/1915381061,"찌개,전골",4.52,111,65,0
315,솔마루,한식,한식/백반/한정식,한식 음식점업,중동,35.15773447,129.1743402,한식한식 백반 한정식한식 음식점업,중동%20솔마루,https://m.place.naver.com/restaurant/17011019,"전통,민속주점",4.37,90,65,0
316,에스카피에,커피점/카페,커피전문점/카페/다방,비알콜 음료점업,중동,35.16023747,129.165299,커피점 카페커피전문점 카페 다방비알콜 음료점업,중동%20에스카피에,https://m.place.naver.com/restaurant/13573588,뷔페,4.47,1196,650,0
317,온더플레이트,부페,종합부페,종합부페,중동,35.16023747,129.165299,종합부페,중동%20온더플레이트,https://m.place.naver.com/restaurant/13573588,뷔페,4.47,1196,650,0
318,안동갈비,한식,갈비/삼겹살,한식 음식점업,중동,35.16409411,129.1701068,한식갈비 삼겹살한식 음식점업,중동%20안동갈비,https://m.place.naver.com/restaurant/35268873,"육류,고기요리",4.19,64,66,0
319,타이가텐푸라,일식/수산물,음식점-일식,일식 음식점업,중동,35.16204785,129.1635686,일식 수산물음식점-일식일식 음식점업,중동%20타이가텐푸라,https://m.place.naver.com/restaurant/1886243771,일식당,4.62,1323,663,0
320,꾼쿡스시&요리,한식,한식/백반/한정식,한식 음식점업,중동,35.16368589,129.1694424,한식한식 백반 한정식한식 음식점업,중동%20꾼쿡스시&요리,https://m.place.naver.com/restaurant/36282027,"초밥,롤",4.41,106,67,0
321,꾼쿡스시,일식/수산물,음식점-초밥전문,일식 음식점업,중동,35.15852191,129.1712124,일식 수산물음식점-초밥전문일식 음식점업,중동%20꾼쿡스시,https://m.place.naver.com/restaurant/36282027,"초밥,롤",4.41,106,67,0
322,꾼쿡스시앤요리,일식/수산물,음식점-초밥전문,일식 음식점업,중동,35.15852191,129.1712124,일식 수산물음식점-초밥전문일식 음식점업,중동%20꾼쿡스시앤요리,https://m.place.naver.com/restaurant/36282027,"초밥,롤",4.41,106,67,0
323,스타벅스해운대점,커피점/카페,커피전문점/카페/다방,비알콜 음료점업,중동,35.16017708,129.1622029,커피점 카페커피전문점 카페 다방비알콜 음료점업,중동%20스타벅스해운대점,https://m.place.naver.com/restaurant/37797967,카페,4.48,2289,67,0
324,카페테라스,커피점/카페,커피전문점/카페/다방,비알콜 음료점업,중동,35.16023747,129.165299,커피점 카페커피전문점 카페 다방비알콜 음료점업,중동%20카페테라스,https://m.place.naver.com/restaurant/89305006,갤러리카페,4.82,387,68,0
325,테라스카페,커피점/카페,커피전문점/카페/다방,비알콜 음료점업,중동,35.16003367,129.163057,커피점 카페커피전문점 카페 다방비알콜 음료점업,중동%20테라스카페,https://m.place.naver.com/restaurant/89305006,갤러리카페,4.82,387,68,0
326,투썸플레이스,커피점/카페,커피전문점/카페/다방,비알콜 음료점업,중동,35.15922077,129.18278,커피점 카페커피전문점 카페 다방비알콜 음료점업,중동%20투썸플레이스,https://m.place.naver.com/restaurant/35194843,카페,4.41,1184,69,0
327,주력발전소,유흥주점,호프/맥주,기타 주점업,중동,35.16290231,129.1628234,유흥주점호프 맥주기타 주점업,중동%20주력발전소,https://m.place.naver.com/restaurant/33879725,요리주점,4.39,58,69,0
328,해운대막창,한식,곱창/양구이전문,한식 음식점업,중동,35.16337696,129.1622045,한식곱창 양구이전문한식 음식점업,중동%20해운대막창,https://m.place.naver.com/restaurant/38501812,"곱창,막창,양",4.67,1074,698,0
329,해운대곱창소막골,한식,곱창/양구이전문,한식 음식점업,중동,35.16378543,129.1628469,한식곱창 양구이전문한식 음식점업,중동%20해운대곱창소막골,https://m.place.naver.com/restaurant/38501812,"곱창,막창,양",4.67,1074,698,0
330,불스떡볶이,분식,라면김밥분식,분식 및 김밥 전문점,중동,35.16276113,129.1746539,분식라면김밥분식분식 및 김밥 전문점,중동%20불스떡볶이,https://m.place.naver.com/restaurant/1963640275,분식,4.48,63,7,0
331,불스떡볶이,분식,떡볶이전문,분식 및 김밥 전문점,중동,35.16404875,129.1747932,분식떡볶이전문분식 및 김밥 전문점,중동%20불스떡볶이,https://m.place.naver.com/restaurant/1963640275,분식,4.48,63,7,0
332,차차온족발,한식,족발/보쌈전문,한식 음식점업,중동,35.16135103,129.1619781,한식족발 보쌈전문한식 음식점업,중동%20차차온족발,https://m.place.naver.com/restaurant/1670074600,"족발,보쌈",4.29,73,7,0
333,미포초장집,일식/수산물,횟집,한식 음식점업,중동,35.15820763,129.1720201,일식 수산물횟집한식 음식점업,중동%20미포초장집,https://m.place.naver.com/restaurant/1290869714,생선회,4.02,77,7,0
334,이디야커피,커피점/카페,커피전문점/카페/다방,비알콜 음료점업,중동,35.16255898,129.1647833,커피점 카페커피전문점 카페 다방비알콜 음료점업,중동%20이디야커피,https://m.place.naver.com/restaurant/1126713723,카페,4.39,821,7,0
335,이디야커피,기타음식업,고속도로휴게소,그외 기타 음식점업,중동,35.16737955,129.170582,기타음식업고속도로휴게소그외 기타 음식점업,중동%20이디야커피,https://m.place.naver.com/restaurant/1126713723,카페,4.39,821,7,0
336,도깨비,양식,정통양식/경양식,서양식 음식점업,중동,35.16281194,129.184248,양식정통양식 경양식서양식 음식점업,중동%20도깨비,https://m.place.naver.com/restaurant/20890363,일식당,4.58,208,71,0
337,차경,양식,정통양식/경양식,서양식 음식점업,중동,35.1586023,129.1750112,양식정통양식 경양식서양식 음식점업,중동%20차경,https://m.place.naver.com/restaurant/1128117709,양식,4.37,24,71,0
338,경호강,일식/수산물,매운탕전문,한식 음식점업,중동,35.17079698,129.1723215,일식 수산물매운탕전문한식 음식점업,중동%20경호강,https://m.place.naver.com/restaurant/13530795,"매운탕,해물탕",4.49,229,72,0
339,킴카롱마카롱,분식,라면김밥분식,분식 및 김밥 전문점,중동,35.16211996,129.1747764,분식라면김밥분식분식 및 김밥 전문점,중동%20킴카롱마카롱,https://m.place.naver.com/restaurant/35084720,"카페,디저트",4.63,62,72,0
340,동백다방,커피점/카페,커피전문점/카페/다방,비알콜 음료점업,중동,35.15780847,129.1787864,커피점 카페커피전문점 카페 다방비알콜 음료점업,중동%20동백다방,https://m.place.naver.com/restaurant/1290908801,분식,4.31,318,73,0
341,벨라치타,양식,정통양식/경양식,서양식 음식점업,중동,35.16162076,129.1871504,양식정통양식 경양식서양식 음식점업,중동%20벨라치타,https://m.place.naver.com/restaurant/52180131,이탈리아음식,4.25,147,762,0
342,라벨라치타,커피점/카페,커피전문점/카페/다방,비알콜 음료점업,중동,35.16162076,129.1871504,커피점 카페커피전문점 카페 다방비알콜 음료점업,중동%20라벨라치타,https://m.place.naver.com/restaurant/52180131,이탈리아음식,4.25,147,762,0
343,사계,한식,한식/백반/한정식,한식 음식점업,중동,35.16761917,129.1719027,한식한식 백반 한정식한식 음식점업,중동%20사계,https://m.place.naver.com/restaurant/1167884050,공방,4.99,44,77,0
344,사비아,양식,정통양식/경양식,서양식 음식점업,중동,35.16227708,129.1827145,양식정통양식 경양식서양식 음식점업,중동%20사비아,https://m.place.naver.com/restaurant/1145759710,양식,4.35,417,773,0
345,하진이네,한식,한식/백반/한정식,한식 음식점업,중동,35.16201298,129.1940162,한식한식 백반 한정식한식 음식점업,중동%20하진이네,https://m.place.naver.com/restaurant/12951441,"해물,생선요리",4.12,795,787,0
346,빌리진라운지,유흥주점,룸살롱/단란주점,일반유흥 주점업,중동,35.16193095,129.1672879,유흥주점룸살롱 단란주점일반유흥 주점업,중동%20빌리진라운지,https://m.place.naver.com/restaurant/34923515,바(BAR),4.35,30,82,0
347,스페인클럽,한식,한식/백반/한정식,한식 음식점업,중동,35.16021589,129.1666048,한식한식 백반 한정식한식 음식점업,중동%20스페인클럽,https://m.place.naver.com/restaurant/32516913,양식,4.37,569,824,0
348,육화목,한식,한식/백반/한정식,한식 음식점업,중동,35.16967605,129.1707905,한식한식 백반 한정식한식 음식점업,중동%20육화목,https://m.place.naver.com/restaurant/36219995,소고기구이,4.59,125,84,0
349,해운대미포속씨원한대구탕,일식/수산물,해물찜/탕전문,한식 음식점업,중동,35.15883396,129.1706352,일식 수산물해물찜 탕전문한식 음식점업,중동%20해운대미포속씨원한대구탕,https://m.place.naver.com/restaurant/11833768,"매운탕,해물탕",4.33,1989,841,0
350,콩부인더오븐,양식,정통양식/경양식,서양식 음식점업,중동,35.17155892,129.1718275,양식정통양식 경양식서양식 음식점업,중동%20콩부인더오븐,https://m.place.naver.com/restaurant/64374456,브런치,4.43,206,87,0
351,콩부인더오븐,양식,정통양식/경양식,서양식 음식점업,중동,35.17151375,129.1718378,양식정통양식 경양식서양식 음식점업,중동%20콩부인더오븐,https://m.place.naver.com/restaurant/64374456,브런치,4.43,206,87,0
352,달빛거리체스카,양식,정통양식/경양식,서양식 음식점업,중동,35.1586023,129.1750112,양식정통양식 경양식서양식 음식점업,중동%20달빛거리체스카,https://m.place.naver.com/restaurant/37281915,브런치,4.45,145,88,0
353,낭만부엌,양식,정통양식/경양식,서양식 음식점업,중동,35.16019787,129.1740682,양식정통양식 경양식서양식 음식점업,중동%20낭만부엌,https://m.place.naver.com/restaurant/33611945,"족발,보쌈",4.49,73,89,0
354,부산곰장어,일식/수산물,곰장어전문,한식 음식점업,중동,35.16121658,129.1618994,일식 수산물곰장어전문한식 음식점업,중동%20부산곰장어,https://m.place.naver.com/restaurant/1556639075,"장어,먹장어요리",4.34,106,9,0
355,파리바게뜨,제과제빵떡케익,제과점,제과점업,중동,35.1660336,129.169015,제과제빵떡케익제과점제과점업,중동%20파리바게뜨,https://m.place.naver.com/restaurant/11785033,베이커리,4.33,2661,9,0
356,파리바게뜨,제과제빵떡케익,제과점,제과점업,중동,35.16021589,129.1666048,제과제빵떡케익제과점제과점업,중동%20파리바게뜨,https://m.place.naver.com/restaurant/11785033,베이커리,4.33,2661,9,0
357,텐,유흥주점,관광/유흥주점,일반유흥 주점업,중동,35.16362041,129.162197,유흥주점관광 유흥주점일반유흥 주점업,중동%20텐,https://m.place.naver.com/restaurant/62242333,이자카야,4.22,24,9,0
358,3학년6반,한식,한식/백반/한정식,한식 음식점업,중동,35.16305493,129.1619475,한식한식 백반 한정식한식 음식점업,중동%203학년6반,https://m.place.naver.com/restaurant/62840035,요리주점,4.55,43,9,6
359,달맞이반점,중식,중국음식/중국집,중식 음식점업,중동,35.16101499,129.1818072,중식중국음식 중국집중식 음식점업,중동%20달맞이반점,https://m.place.naver.com/restaurant/20100754,중식당,4.31,44,9,0
360,메가엠지씨커피해운대,커피점/카페,커피전문점/카페/다방,비알콜 음료점업,중동,35.16045526,129.1707572,커피점 카페커피전문점 카페 다방비알콜 음료점업,중동%20메가엠지씨커피해운대,https://m.place.naver.com/restaurant/1528870590,카페,4.37,487,9,0
361,사또,유흥주점,룸살롱/단란주점,일반유흥 주점업,중동,35.16180918,129.1658922,유흥주점룸살롱 단란주점일반유흥 주점업,중동%20사또,https://m.place.naver.com/restaurant/33617829,"족발,보쌈",4.44,74,91,0
362,옥이보리밥,한식,보리밥전문,한식 음식점업,중동,35.1629564,129.1906602,한식보리밥전문한식 음식점업,중동%20옥이보리밥,https://m.place.naver.com/restaurant/37683511,보리밥,4.52,269,95,0
363,고동운식당,양식,기타전문서양음식점,서양식 음식점업,중동,35.16322319,129.1845942,양식기타전문서양음식점서양식 음식점업,중동%20고동운식당,https://m.place.naver.com/restaurant/1121739833,양식,4.1,50,95,0
364,쉼표,한식,한식/백반/한정식,한식 음식점업,중동,35.16093669,129.1741008,한식한식 백반 한정식한식 음식점업,중동%20쉼표,https://m.place.naver.com/restaurant/1277982288,필라테스,4.7,56,96,0
